{
    "AAN": {
        "latitude": 24.2617,
        "longitude": 55.6092,
        "airport_name": "Al Ain International Airport",
        "region_name": "Abu Zaby"
    },
    "AUH": {
        "latitude": 24.433,
        "longitude": 54.6511,
        "airport_name": "Abu Dhabi International Airport",
        "region_name": "Abu Zaby"
    },
    "AYM": {
        "latitude": 24.467,
        "longitude": 54.6103,
        "airport_name": "Yas Island Seaplane Base",
        "region_name": "Abu Zaby"
    },
    "AZI": {
        "latitude": 24.4283,
        "longitude": 54.4581,
        "airport_name": "Al Bateen Executive Airport",
        "region_name": "Abu Zaby"
    },
    "DHF": {
        "latitude": 24.2482,
        "longitude": 54.5477,
        "airport_name": "Al Dhafra Air Base",
        "region_name": "Abu Zaby"
    },
    "XSB": {
        "latitude": 24.2836,
        "longitude": 52.5803,
        "airport_name": "Sir Bani Yas Airport",
        "region_name": "Abu Zaby"
    },
    "ZDY": {
        "latitude": 24.51,
        "longitude": 52.3352,
        "airport_name": "Dalma Airport",
        "region_name": "Abu Zaby"
    },
    "FJR": {
        "latitude": 25.1122,
        "longitude": 56.324,
        "airport_name": "Fujairah International Airport",
        "region_name": "Al Fujayrah"
    },
    "SHJ": {
        "latitude": 25.3286,
        "longitude": 55.5172,
        "airport_name": "Sharjah International Airport",
        "region_name": "Ash Shariqah"
    },
    "DCG": {
        "latitude": 25.2422,
        "longitude": 55.3314,
        "airport_name": "Dubai Creek Seaplane Base",
        "region_name": "Dubayy"
    },
    "DJH": {
        "latitude": 24.989,
        "longitude": 55.0238,
        "airport_name": "Jebel Ali Seaplane Base",
        "region_name": "Dubayy"
    },
    "DWC": {
        "latitude": 24.8964,
        "longitude": 55.1614,
        "airport_name": "Al Maktoum International Airport",
        "region_name": "Dubayy"
    },
    "DXB": {
        "latitude": 25.2528,
        "longitude": 55.3644,
        "airport_name": "Dubai International Airport",
        "region_name": "Dubayy"
    },
    "NHD": {
        "latitude": 25.0268,
        "longitude": 55.3662,
        "airport_name": "Al Minhad Air Base",
        "region_name": "Dubayy"
    },
    "RHR": {
        "latitude": 25.691,
        "longitude": 55.778,
        "airport_name": "Al Hamra Seaplane Base",
        "region_name": "Ra's al Khaymah"
    },
    "RKT": {
        "latitude": 25.6135,
        "longitude": 55.9388,
        "airport_name": "Ras Al Khaimah International Airport",
        "region_name": "Ra's al Khaymah"
    },
    "DAZ": {
        "latitude": 38.4611,
        "longitude": 70.8825,
        "airport_name": "Darwaz Airport",
        "region_name": "Badakhshan"
    },
    "FBD": {
        "latitude": 37.1211,
        "longitude": 70.5181,
        "airport_name": "Fayzabad Airport",
        "region_name": "Badakhshan"
    },
    "KUR": {
        "latitude": 37.752,
        "longitude": -89.0154,
        "airport_name": "Razer Airport",
        "region_name": "Badakhshan"
    },
    "KWH": {
        "latitude": 37.883,
        "longitude": 70.217,
        "airport_name": "Khwahan Airport",
        "region_name": "Badakhshan"
    },
    "SGA": {
        "latitude": 37.567,
        "longitude": 71.5,
        "airport_name": "Sheghnan Airport",
        "region_name": "Badakhshan"
    },
    "LQN": {
        "latitude": 34.985,
        "longitude": 63.1178,
        "airport_name": "Qala i Naw Airport",
        "region_name": "Badghis"
    },
    "MZR": {
        "latitude": 36.7069,
        "longitude": 67.2097,
        "airport_name": "Mazar-e Sharif International Airport",
        "region_name": "Balkh"
    },
    "BIN": {
        "latitude": 34.817,
        "longitude": 67.817,
        "airport_name": "Bamyan Airport",
        "region_name": "Bamyan"
    },
    "FAH": {
        "latitude": 32.367,
        "longitude": 62.183,
        "airport_name": "Farah Airport",
        "region_name": "Farah"
    },
    "MMZ": {
        "latitude": 35.9308,
        "longitude": 64.7609,
        "airport_name": "Maymana Airport",
        "region_name": "Faryab"
    },
    "GZI": {
        "latitude": 33.5312,
        "longitude": 68.4129,
        "airport_name": "Ghazni Airport",
        "region_name": "Ghazni"
    },
    "SBF": {
        "latitude": 33.3207,
        "longitude": 68.6365,
        "airport_name": "Sardeh Band Airport",
        "region_name": "Ghazni"
    },
    "CCN": {
        "latitude": 34.5265,
        "longitude": 65.271,
        "airport_name": "Chaghcharan Airport",
        "region_name": "Ghor"
    },
    "BST": {
        "latitude": 31.5597,
        "longitude": 64.365,
        "airport_name": "Bost Airport",
        "region_name": "Helmand"
    },
    "DWR": {
        "latitude": 31.0,
        "longitude": 64.0,
        "airport_name": "Dwyer Airport",
        "region_name": "Helmand"
    },
    "OAZ": {
        "latitude": 31.8638,
        "longitude": 64.2246,
        "airport_name": "Camp Bastion Air Base",
        "region_name": "Helmand"
    },
    "HEA": {
        "latitude": 34.21,
        "longitude": 62.2283,
        "airport_name": "Herat International Airport",
        "region_name": "Herat"
    },
    "OAH": {
        "latitude": 33.3913,
        "longitude": 62.261,
        "airport_name": "Shindand Air Base",
        "region_name": "Herat"
    },
    "ZAJ": {
        "latitude": 30.9722,
        "longitude": 61.8658,
        "airport_name": "Zaranj Airport",
        "region_name": "Herat"
    },
    "GRG": {
        "latitude": 33.6315,
        "longitude": 69.2394,
        "airport_name": "Gardez Airport",
        "region_name": "Kabul"
    },
    "KBL": {
        "latitude": 34.5658,
        "longitude": 69.2131,
        "airport_name": "Kabul International Airport",
        "region_name": "Kabul"
    },
    "KDH": {
        "latitude": 31.5058,
        "longitude": 65.8478,
        "airport_name": "Kandahar International Airport",
        "region_name": "Kandahar"
    },
    "TII": {
        "latitude": 32.6042,
        "longitude": 65.8658,
        "airport_name": "Tarinkot Airport",
        "region_name": "Kandahar"
    },
    "URZ": {
        "latitude": 32.903,
        "longitude": 66.6309,
        "airport_name": "Uruzgan Airport",
        "region_name": "Kandahar"
    },
    "KHT": {
        "latitude": 33.3334,
        "longitude": 69.952,
        "airport_name": "Khost Airfield",
        "region_name": "Khost"
    },
    "OLR": {
        "latitude": 33.3638,
        "longitude": 69.9561,
        "airport_name": "Forward Operating Base Salerno",
        "region_name": "Khost"
    },
    "UND": {
        "latitude": 36.6651,
        "longitude": 68.9108,
        "airport_name": "Kunduz Airport",
        "region_name": "Kunduz"
    },
    "OAA": {
        "latitude": 33.9225,
        "longitude": 69.0772,
        "airport_name": "Forward Operating Base Shank",
        "region_name": "Logar"
    },
    "JAA": {
        "latitude": 34.3998,
        "longitude": 70.4986,
        "airport_name": "Jalalabad Airport",
        "region_name": "Nangarhar"
    },
    "OAS": {
        "latitude": 33.1258,
        "longitude": 68.8385,
        "airport_name": "Sharana Airstrip / Forward Operating Base Sharana",
        "region_name": "Paktika"
    },
    "URN": {
        "latitude": 32.9318,
        "longitude": 69.1563,
        "airport_name": "Urgun Airport",
        "region_name": "Paktika"
    },
    "OAI": {
        "latitude": 34.9461,
        "longitude": 69.265,
        "airport_name": "Bagram Airfield",
        "region_name": "Parwan"
    },
    "TQN": {
        "latitude": 36.7707,
        "longitude": 69.532,
        "airport_name": "Taloqan Airport",
        "region_name": "Takhar"
    },
    "BBQ": {
        "latitude": 17.6358,
        "longitude": -61.8286,
        "airport_name": "Barbuda Codrington Airport",
        "region_name": "Barbuda"
    },
    "ANU": {
        "latitude": 17.1367,
        "longitude": -61.7927,
        "airport_name": "V. C. Bird International Airport",
        "region_name": "Saint George"
    },
    "AXA": {
        "latitude": 18.2048,
        "longitude": -63.0551,
        "airport_name": "Clayton J. Lloyd International Airport",
        "region_name": "Anguilla"
    },
    "EVN": {
        "latitude": 40.1473,
        "longitude": 44.3959,
        "airport_name": "Zvartnots International Airport",
        "region_name": "Erevan"
    },
    "LWN": {
        "latitude": 40.7504,
        "longitude": 43.8593,
        "airport_name": "Gyumri Shirak Airport",
        "region_name": "Sirak"
    },
    "AZZ": {
        "latitude": -7.86222,
        "longitude": 13.1161,
        "airport_name": "Ambriz Airport",
        "region_name": "Bengo"
    },
    "BUG": {
        "latitude": -12.609,
        "longitude": 13.4037,
        "airport_name": "Benguela Airport (Gen. V. Deslandes Airport)",
        "region_name": "Benguela"
    },
    "CBT": {
        "latitude": -12.4792,
        "longitude": 13.4869,
        "airport_name": "Catumbela Airport",
        "region_name": "Benguela"
    },
    "LLT": {
        "latitude": -12.3757,
        "longitude": 13.561,
        "airport_name": "Lobito Airport",
        "region_name": "Benguela"
    },
    "ANL": {
        "latitude": -11.4723,
        "longitude": 16.7109,
        "airport_name": "Andulo Airport",
        "region_name": "Bie"
    },
    "SVP": {
        "latitude": -12.4046,
        "longitude": 16.9474,
        "airport_name": "Kuito Airport",
        "region_name": "Bie"
    },
    "CAB": {
        "latitude": -5.59699,
        "longitude": 12.1884,
        "airport_name": "Cabinda Airport",
        "region_name": "Cabinda"
    },
    "VPE": {
        "latitude": -17.0435,
        "longitude": 15.6838,
        "airport_name": "Ondjiva Pereira Airport",
        "region_name": "Cunene"
    },
    "XGN": {
        "latitude": -16.7554,
        "longitude": 14.9653,
        "airport_name": "Xangongo Airport",
        "region_name": "Cunene"
    },
    "NOV": {
        "latitude": -12.8089,
        "longitude": 15.7605,
        "airport_name": "Albano Machado Airport",
        "region_name": "Huambo"
    },
    "JMB": {
        "latitude": -14.6982,
        "longitude": 16.0701,
        "airport_name": "Jamba Airport",
        "region_name": "Huila"
    },
    "SDD": {
        "latitude": -14.9247,
        "longitude": 13.575,
        "airport_name": "Lubango Mukanka Airport",
        "region_name": "Huila"
    },
    "CTI": {
        "latitude": -15.1603,
        "longitude": 19.1561,
        "airport_name": "Cuito Cuanavale Airport",
        "region_name": "Kuando Kubango"
    },
    "DRC": {
        "latitude": -17.9819,
        "longitude": 20.7681,
        "airport_name": "Dirico Airport",
        "region_name": "Kuando Kubango"
    },
    "SPP": {
        "latitude": -14.6576,
        "longitude": 17.7198,
        "airport_name": "Menongue Airport",
        "region_name": "Kuando Kubango"
    },
    "NDF": {
        "latitude": -9.27519,
        "longitude": 14.9772,
        "airport_name": "N'dalatando Airport",
        "region_name": "Kwanza Norte"
    },
    "CEO": {
        "latitude": -11.4264,
        "longitude": 15.1014,
        "airport_name": "Waco Kungo Airport",
        "region_name": "Kwanza Sul"
    },
    "NDD": {
        "latitude": -11.1679,
        "longitude": 13.8475,
        "airport_name": "Sumbe Airport",
        "region_name": "Kwanza Sul"
    },
    "PBN": {
        "latitude": -10.722,
        "longitude": 13.7655,
        "airport_name": "Porto Amboim Airport",
        "region_name": "Kwanza Sul"
    },
    "LAD": {
        "latitude": -8.85837,
        "longitude": 13.2312,
        "airport_name": "Quatro de Fevereiro Airport",
        "region_name": "Luanda"
    },
    "CFF": {
        "latitude": -8.78361,
        "longitude": 17.9897,
        "airport_name": "Cafunfo Airport",
        "region_name": "Lunda Norte"
    },
    "DUE": {
        "latitude": -7.40089,
        "longitude": 20.8185,
        "airport_name": "Dundo Airport",
        "region_name": "Lunda Norte"
    },
    "LBZ": {
        "latitude": -8.44573,
        "longitude": 20.7321,
        "airport_name": "Lucapa Airport",
        "region_name": "Lunda Norte"
    },
    "LZM": {
        "latitude": -9.11596,
        "longitude": 18.0493,
        "airport_name": "Cuango-Luzamba Airport",
        "region_name": "Lunda Norte"
    },
    "NZA": {
        "latitude": -7.71694,
        "longitude": 21.3582,
        "airport_name": "Nzagi Airport",
        "region_name": "Lunda Norte"
    },
    "PGI": {
        "latitude": -7.35889,
        "longitude": 20.8047,
        "airport_name": "Chitato Airport",
        "region_name": "Lunda Norte"
    },
    "VHC": {
        "latitude": -9.68907,
        "longitude": 20.4319,
        "airport_name": "Henrique de Carvalho Airport",
        "region_name": "Lunda Sul"
    },
    "KNP": {
        "latitude": -9.76937,
        "longitude": 15.4553,
        "airport_name": "Kapanda Airport",
        "region_name": "Malange"
    },
    "MEG": {
        "latitude": -9.52509,
        "longitude": 16.3124,
        "airport_name": "Malanje Airport",
        "region_name": "Malange"
    },
    "CAV": {
        "latitude": -11.8931,
        "longitude": 22.9164,
        "airport_name": "Cazombo Airport",
        "region_name": "Moxico"
    },
    "CNZ": {
        "latitude": -13.7106,
        "longitude": 19.8611,
        "airport_name": "Cangamba Airport",
        "region_name": "Moxico"
    },
    "GGC": {
        "latitude": -14.105,
        "longitude": 21.45,
        "airport_name": "Lumbala N'guimbo Airport",
        "region_name": "Moxico"
    },
    "LUO": {
        "latitude": -11.7681,
        "longitude": 19.8977,
        "airport_name": "Luena Airport",
        "region_name": "Moxico"
    },
    "UAL": {
        "latitude": -10.7158,
        "longitude": 22.2311,
        "airport_name": "Luau Airport",
        "region_name": "Moxico"
    },
    "MSZ": {
        "latitude": -15.2612,
        "longitude": 12.1468,
        "airport_name": "Namibe Airport (Yuri Gagarin Airport)",
        "region_name": "Namibe"
    },
    "GXG": {
        "latitude": -7.75451,
        "longitude": 15.2877,
        "airport_name": "Negage Airport",
        "region_name": "Uige"
    },
    "UGO": {
        "latitude": -7.60307,
        "longitude": 15.0278,
        "airport_name": "Uige Airport",
        "region_name": "Uige"
    },
    "ARZ": {
        "latitude": -7.25944,
        "longitude": 12.8631,
        "airport_name": "N'zeto Airport",
        "region_name": "Zaire"
    },
    "SSY": {
        "latitude": -6.2699,
        "longitude": 14.247,
        "airport_name": "Mbanza Congo Airport",
        "region_name": "Zaire"
    },
    "SZA": {
        "latitude": -6.14109,
        "longitude": 12.3718,
        "airport_name": "Soyo Airport",
        "region_name": "Zaire"
    },
    "TNM": {
        "latitude": -62.1908,
        "longitude": -58.9867,
        "airport_name": "Teniente R. Marsh Airport",
        "region_name": "Antarctica"
    },
    "AEP": {
        "latitude": -34.5589,
        "longitude": -58.4164,
        "airport_name": "Aeroparque Internacional Jorge Newbery",
        "region_name": "Buenos Aires"
    },
    "BHI": {
        "latitude": -38.725,
        "longitude": -62.1693,
        "airport_name": "Comandante Espora Airport",
        "region_name": "Buenos Aires"
    },
    "CPG": {
        "latitude": -40.7781,
        "longitude": -62.9803,
        "airport_name": "Carmen de Patagones Airport",
        "region_name": "Buenos Aires"
    },
    "CSZ": {
        "latitude": -37.4461,
        "longitude": -61.8893,
        "airport_name": "Brigadier Hector Eduardo Ruiz Airport",
        "region_name": "Buenos Aires"
    },
    "EPA": {
        "latitude": -34.6099,
        "longitude": -58.6126,
        "airport_name": "El Palomar Airport",
        "region_name": "Buenos Aires"
    },
    "EZE": {
        "latitude": -34.8222,
        "longitude": -58.5358,
        "airport_name": "Ministro Pistarini International Airport",
        "region_name": "Buenos Aires"
    },
    "JNI": {
        "latitude": -34.5459,
        "longitude": -60.9306,
        "airport_name": "Junin Airport",
        "region_name": "Buenos Aires"
    },
    "LPG": {
        "latitude": -34.9722,
        "longitude": -57.8947,
        "airport_name": "La Plata Airport",
        "region_name": "Buenos Aires"
    },
    "MDQ": {
        "latitude": -37.9342,
        "longitude": -57.5733,
        "airport_name": "Astor Piazzolla International Airport",
        "region_name": "Buenos Aires"
    },
    "MJR": {
        "latitude": -38.2271,
        "longitude": -57.8697,
        "airport_name": "Miramar Airport",
        "region_name": "Buenos Aires"
    },
    "NEC": {
        "latitude": -38.4831,
        "longitude": -58.8172,
        "airport_name": "Necochea Airport",
        "region_name": "Buenos Aires"
    },
    "OVR": {
        "latitude": -36.89,
        "longitude": -60.2166,
        "airport_name": "Olavarria Airport",
        "region_name": "Buenos Aires"
    },
    "OYO": {
        "latitude": -38.3869,
        "longitude": -60.3297,
        "airport_name": "Tres Arroyos Airport",
        "region_name": "Buenos Aires"
    },
    "PEH": {
        "latitude": -35.8446,
        "longitude": -61.8576,
        "airport_name": "Comodoro Pedro Zanni Airport",
        "region_name": "Buenos Aires"
    },
    "SST": {
        "latitude": -36.5423,
        "longitude": -56.7218,
        "airport_name": "Santa Teresita Airport",
        "region_name": "Buenos Aires"
    },
    "TDL": {
        "latitude": -37.2374,
        "longitude": -59.2279,
        "airport_name": "Tandil Airport",
        "region_name": "Buenos Aires"
    },
    "VGS": {
        "latitude": -35.0,
        "longitude": -63.0,
        "airport_name": "General Villegas Airport",
        "region_name": "Buenos Aires"
    },
    "VLG": {
        "latitude": -37.2354,
        "longitude": -57.0292,
        "airport_name": "Villa Gesell Airport",
        "region_name": "Buenos Aires"
    },
    "CTC": {
        "latitude": -28.5956,
        "longitude": -65.7517,
        "airport_name": "Coronel Felipe Varela International Airport",
        "region_name": "Catamarca"
    },
    "CNT": {
        "latitude": -27.2164,
        "longitude": -61.2103,
        "airport_name": "Charata Airport",
        "region_name": "Chaco"
    },
    "PRQ": {
        "latitude": -26.7536,
        "longitude": -60.4922,
        "airport_name": "Presidencia Roque Saenz Pena Airport",
        "region_name": "Chaco"
    },
    "RES": {
        "latitude": -27.45,
        "longitude": -59.0561,
        "airport_name": "Resistencia International Airport",
        "region_name": "Chaco"
    },
    "ARR": {
        "latitude": -45.0136,
        "longitude": -70.8122,
        "airport_name": "Alto Rio Senguer Airport",
        "region_name": "Chubut"
    },
    "CRD": {
        "latitude": -45.7853,
        "longitude": -67.4655,
        "airport_name": "General Enrique Mosconi International Airport",
        "region_name": "Chubut"
    },
    "EMX": {
        "latitude": -42.0292,
        "longitude": -71.1725,
        "airport_name": "El Maiten Airport",
        "region_name": "Chubut"
    },
    "EQS": {
        "latitude": -42.908,
        "longitude": -71.1395,
        "airport_name": "Esquel Airport",
        "region_name": "Chubut"
    },
    "JSM": {
        "latitude": -44.0486,
        "longitude": -70.4589,
        "airport_name": "Jose de San Martin Airport",
        "region_name": "Chubut"
    },
    "OLN": {
        "latitude": -45.5824,
        "longitude": -68.9998,
        "airport_name": "Lago Musters Airport",
        "region_name": "Chubut"
    },
    "PMY": {
        "latitude": -42.7592,
        "longitude": -65.1027,
        "airport_name": "El Tehuelche Airport",
        "region_name": "Chubut"
    },
    "REL": {
        "latitude": -43.2105,
        "longitude": -65.2703,
        "airport_name": "Almirante Marcos A. Zar Airport",
        "region_name": "Chubut"
    },
    "ROY": {
        "latitude": -45.7039,
        "longitude": -70.2456,
        "airport_name": "Rio Mayo Airport",
        "region_name": "Chubut"
    },
    "COR": {
        "latitude": -31.3236,
        "longitude": -64.208,
        "airport_name": "Ingeniero Aeronautico Ambrosio L.V. Taravella International Airport (Pajas Blancas)",
        "region_name": "Cordoba"
    },
    "LCM": {
        "latitude": -31.0058,
        "longitude": -64.5319,
        "airport_name": "La Cumbre Airport",
        "region_name": "Cordoba"
    },
    "RCU": {
        "latitude": -33.0851,
        "longitude": -64.2613,
        "airport_name": "Las Higueras Airport",
        "region_name": "Cordoba"
    },
    "VDR": {
        "latitude": -31.9452,
        "longitude": -65.1463,
        "airport_name": "Villa Dolores Airport",
        "region_name": "Cordoba"
    },
    "AOL": {
        "latitude": -29.6894,
        "longitude": -57.1521,
        "airport_name": "Paso de los Libres Airport",
        "region_name": "Corrientes"
    },
    "CNQ": {
        "latitude": -27.4455,
        "longitude": -58.7619,
        "airport_name": "Doctor Fernando Piragine Niveyro International Airport",
        "region_name": "Corrientes"
    },
    "MCS": {
        "latitude": -30.2719,
        "longitude": -57.6402,
        "airport_name": "Monte Caseros Airport",
        "region_name": "Corrientes"
    },
    "MDX": {
        "latitude": -29.2214,
        "longitude": -58.0878,
        "airport_name": "Mercedes Airport",
        "region_name": "Corrientes"
    },
    "OYA": {
        "latitude": -29.1058,
        "longitude": -59.2189,
        "airport_name": "Goya Airport",
        "region_name": "Corrientes"
    },
    "UZU": {
        "latitude": -29.7706,
        "longitude": -57.9789,
        "airport_name": "Curuzu Cuatia Airport",
        "region_name": "Corrientes"
    },
    "COC": {
        "latitude": -31.2969,
        "longitude": -57.9966,
        "airport_name": "Comodoro Pierrestegui Airport",
        "region_name": "Entre Rios"
    },
    "GHU": {
        "latitude": -33.0103,
        "longitude": -58.6131,
        "airport_name": "Gualeguaychu Airport",
        "region_name": "Entre Rios"
    },
    "PRA": {
        "latitude": -31.7948,
        "longitude": -60.4804,
        "airport_name": "General Justo Jose de Urquiza Airport",
        "region_name": "Entre Rios"
    },
    "CLX": {
        "latitude": -25.3036,
        "longitude": -57.7344,
        "airport_name": "Clorinda Airport",
        "region_name": "Formosa"
    },
    "FMA": {
        "latitude": -26.2127,
        "longitude": -58.2281,
        "airport_name": "Formosa International Airport (El Pucu Airport)",
        "region_name": "Formosa"
    },
    "LLS": {
        "latitude": -24.7214,
        "longitude": -60.5488,
        "airport_name": "Alferez Armando Rodriguez Airport",
        "region_name": "Formosa"
    },
    "JUJ": {
        "latitude": -24.3928,
        "longitude": -65.0978,
        "airport_name": "Gobernador Horacio Guzman International Airport",
        "region_name": "Jujuy"
    },
    "GPO": {
        "latitude": -35.6962,
        "longitude": -63.7583,
        "airport_name": "General Pico Airport",
        "region_name": "La Pampa"
    },
    "RSA": {
        "latitude": -36.5883,
        "longitude": -64.2757,
        "airport_name": "Santa Rosa Airport (Argentina)",
        "region_name": "La Pampa"
    },
    "IRJ": {
        "latitude": -29.3816,
        "longitude": -66.7958,
        "airport_name": "Capitan Vicente Almandos Almonacid Airport",
        "region_name": "La Rioja"
    },
    "AFA": {
        "latitude": -34.5883,
        "longitude": -68.4039,
        "airport_name": "San Rafael Airport (Argentina)",
        "region_name": "Mendoza"
    },
    "LGS": {
        "latitude": -35.4936,
        "longitude": -69.5743,
        "airport_name": "Comodoro D. Ricardo Salomon Airport",
        "region_name": "Mendoza"
    },
    "MDZ": {
        "latitude": -32.8317,
        "longitude": -68.7929,
        "airport_name": "Gov. Francisco Gabrielli International Airport (El Plumerillo)",
        "region_name": "Mendoza"
    },
    "ELO": {
        "latitude": -26.3975,
        "longitude": -54.5747,
        "airport_name": "Eldorado Airport",
        "region_name": "Misiones"
    },
    "IGR": {
        "latitude": -25.7373,
        "longitude": -54.4734,
        "airport_name": "Cataratas del Iguazu International Airport",
        "region_name": "Misiones"
    },
    "PSS": {
        "latitude": -27.3858,
        "longitude": -55.9707,
        "airport_name": "Libertador General Jose de San Martin Airport",
        "region_name": "Misiones"
    },
    "APZ": {
        "latitude": -38.9755,
        "longitude": -70.1136,
        "airport_name": "Zapala Airport",
        "region_name": "Neuquen"
    },
    "CPC": {
        "latitude": -40.0754,
        "longitude": -71.1373,
        "airport_name": "Aviador Carlos Campos Airport",
        "region_name": "Neuquen"
    },
    "CUT": {
        "latitude": -38.9397,
        "longitude": -69.2646,
        "airport_name": "Cutral Co Airport",
        "region_name": "Neuquen"
    },
    "CVH": {
        "latitude": -37.8514,
        "longitude": -71.0092,
        "airport_name": "Caviahue Airport",
        "region_name": "Neuquen"
    },
    "HOS": {
        "latitude": -37.4447,
        "longitude": -70.2225,
        "airport_name": "Chos Malal Airport",
        "region_name": "Neuquen"
    },
    "LCP": {
        "latitude": -38.0819,
        "longitude": -70.6439,
        "airport_name": "Loncopue Airport",
        "region_name": "Neuquen"
    },
    "NQN": {
        "latitude": -38.949,
        "longitude": -68.1557,
        "airport_name": "Presidente Peron International Air",
        "region_name": "Neuquen"
    },
    "RDS": {
        "latitude": -37.3906,
        "longitude": -68.9042,
        "airport_name": "Rincon de los Sauces Airport",
        "region_name": "Neuquen"
    },
    "BRC": {
        "latitude": -41.1512,
        "longitude": -71.1575,
        "airport_name": "San Carlos de Bariloche Airport",
        "region_name": "Rio Negro"
    },
    "CCT": {
        "latitude": -37.9102,
        "longitude": -67.835,
        "airport_name": "Colonia Catriel Airport",
        "region_name": "Rio Negro"
    },
    "EHL": {
        "latitude": -41.9432,
        "longitude": -71.5323,
        "airport_name": "El Bolson Airport",
        "region_name": "Rio Negro"
    },
    "GNR": {
        "latitude": -39.0007,
        "longitude": -67.6205,
        "airport_name": "Dr. Arturo Umberto Illia Airport",
        "region_name": "Rio Negro"
    },
    "IGB": {
        "latitude": -41.3209,
        "longitude": -69.5749,
        "airport_name": "Ingeniero Jacobacci Airport (Capitan FAA H. R. Borden Airport)",
        "region_name": "Rio Negro"
    },
    "LMD": {
        "latitude": -40.8177,
        "longitude": -68.0747,
        "airport_name": "Los Menucos Airport",
        "region_name": "Rio Negro"
    },
    "MQD": {
        "latitude": -41.2431,
        "longitude": -68.7078,
        "airport_name": "Maquinchao Airport",
        "region_name": "Rio Negro"
    },
    "OES": {
        "latitude": -40.7512,
        "longitude": -65.0343,
        "airport_name": "Antoine de Saint Exupery Airport",
        "region_name": "Rio Negro"
    },
    "SGV": {
        "latitude": -41.5917,
        "longitude": -65.3394,
        "airport_name": "Sierra Grande Airport",
        "region_name": "Rio Negro"
    },
    "VCF": {
        "latitude": -40.7,
        "longitude": -66.15,
        "airport_name": "Valcheta Airport",
        "region_name": "Rio Negro"
    },
    "VDM": {
        "latitude": -40.8692,
        "longitude": -63.0004,
        "airport_name": "Gobernador Edgardo Castello Airport",
        "region_name": "Rio Negro"
    },
    "ORA": {
        "latitude": -23.1528,
        "longitude": -64.3292,
        "airport_name": "Oran Air",
        "region_name": "Salta"
    },
    "SLA": {
        "latitude": -24.856,
        "longitude": -65.4862,
        "airport_name": "Martin Miguel de Guemes International Airport",
        "region_name": "Salta"
    },
    "TTG": {
        "latitude": -22.6196,
        "longitude": -63.7937,
        "airport_name": "Tartagal Airport",
        "region_name": "Salta"
    },
    "UAQ": {
        "latitude": -31.5715,
        "longitude": -68.4182,
        "airport_name": "Domingo Faustino Sarmiento Airport",
        "region_name": "San Juan"
    },
    "LUQ": {
        "latitude": -33.2732,
        "longitude": -66.3564,
        "airport_name": "Brigadier Mayor Cesar Raul Ojeda Airport",
        "region_name": "San Luis"
    },
    "RLO": {
        "latitude": -32.3847,
        "longitude": -65.1865,
        "airport_name": "Valle del Conlara Airport",
        "region_name": "San Luis"
    },
    "VME": {
        "latitude": -33.7299,
        "longitude": -65.3874,
        "airport_name": "Villa Reynolds Airport",
        "region_name": "San Luis"
    },
    "CVI": {
        "latitude": -46.4318,
        "longitude": -67.5186,
        "airport_name": "Caleta Olivia Airport",
        "region_name": "Santa Cruz"
    },
    "FTE": {
        "latitude": -50.2803,
        "longitude": -72.0531,
        "airport_name": "Comandante Armando Tola International Airport",
        "region_name": "Santa Cruz"
    },
    "GGS": {
        "latitude": -48.7831,
        "longitude": -70.15,
        "airport_name": "Gobernador Gregores Airport",
        "region_name": "Santa Cruz"
    },
    "LHS": {
        "latitude": -46.5383,
        "longitude": -68.9653,
        "airport_name": "Las Heras Airport",
        "region_name": "Santa Cruz"
    },
    "PMQ": {
        "latitude": -46.5379,
        "longitude": -70.9787,
        "airport_name": "Perito Moreno Airport",
        "region_name": "Santa Cruz"
    },
    "PUD": {
        "latitude": -47.7353,
        "longitude": -65.9041,
        "airport_name": "Puerto Deseado Airport",
        "region_name": "Santa Cruz"
    },
    "RGL": {
        "latitude": -51.6089,
        "longitude": -69.3126,
        "airport_name": "Piloto Civil Norberto Fernandez International Airport",
        "region_name": "Santa Cruz"
    },
    "RYO": {
        "latitude": -51.605,
        "longitude": -72.2203,
        "airport_name": "Rio Turbio Airport",
        "region_name": "Santa Cruz"
    },
    "RZA": {
        "latitude": -50.0165,
        "longitude": -68.5792,
        "airport_name": "Santa Cruz Airport (Argentina)",
        "region_name": "Santa Cruz"
    },
    "ULA": {
        "latitude": -49.3068,
        "longitude": -67.8026,
        "airport_name": "Capitan Jose Daniel Vazquez Airport",
        "region_name": "Santa Cruz"
    },
    "CRR": {
        "latitude": -29.8723,
        "longitude": -61.9279,
        "airport_name": "Ceres Airport",
        "region_name": "Santa Fe"
    },
    "NCJ": {
        "latitude": -30.9575,
        "longitude": -61.5283,
        "airport_name": "Sunchales Airport",
        "region_name": "Santa Fe"
    },
    "RAF": {
        "latitude": -31.2825,
        "longitude": -61.5017,
        "airport_name": "Rafaela Airport",
        "region_name": "Santa Fe"
    },
    "RCQ": {
        "latitude": -29.2103,
        "longitude": -59.68,
        "airport_name": "Reconquista Airport",
        "region_name": "Santa Fe"
    },
    "ROS": {
        "latitude": -32.9036,
        "longitude": -60.785,
        "airport_name": "Rosario - Islas Malvinas International Airport",
        "region_name": "Santa Fe"
    },
    "SFN": {
        "latitude": -31.7117,
        "longitude": -60.8117,
        "airport_name": "Sauce Viejo Airport",
        "region_name": "Santa Fe"
    },
    "RHD": {
        "latitude": -27.4966,
        "longitude": -64.936,
        "airport_name": "Termas de Rio Hondo Airport",
        "region_name": "Santiago del Estero"
    },
    "SDE": {
        "latitude": -27.7656,
        "longitude": -64.31,
        "airport_name": "Vicecomodoro Angel de la Paz Aragones Airport",
        "region_name": "Santiago del Estero"
    },
    "RGA": {
        "latitude": -53.7777,
        "longitude": -67.7494,
        "airport_name": "Hermes Quijada International Airport",
        "region_name": "Tierra del Fuego"
    },
    "USH": {
        "latitude": -54.8433,
        "longitude": -68.2958,
        "airport_name": "Ushuaia - Malvinas Argentinas International Airport",
        "region_name": "Tierra del Fuego"
    },
    "TUC": {
        "latitude": -26.8409,
        "longitude": -65.1049,
        "airport_name": "Teniente General Benjamin Matienzo International Airport",
        "region_name": "Tucuman"
    },
    "OFU": {
        "latitude": -14.1844,
        "longitude": -169.67,
        "airport_name": "Ofu Airport",
        "region_name": "Eastern District"
    },
    "PPG": {
        "latitude": -14.331,
        "longitude": -170.71,
        "airport_name": "Pago Pago International Airport",
        "region_name": "Eastern District"
    },
    "TAV": {
        "latitude": -14.2292,
        "longitude": -169.511,
        "airport_name": "Tau Airport",
        "region_name": "Eastern District"
    },
    "KLU": {
        "latitude": 46.6425,
        "longitude": 14.3377,
        "airport_name": "Klagenfurt Airport",
        "region_name": "Karnten"
    },
    "VIE": {
        "latitude": 48.1103,
        "longitude": 16.5697,
        "airport_name": "Vienna International Airport",
        "region_name": "Niederosterreich"
    },
    "LNZ": {
        "latitude": 48.2332,
        "longitude": 14.1875,
        "airport_name": "Linz Airport (Blue Danube Airport)",
        "region_name": "Oberosterreich"
    },
    "SZG": {
        "latitude": 47.7933,
        "longitude": 13.0043,
        "airport_name": "Salzburg Airport",
        "region_name": "Salzburg"
    },
    "GRZ": {
        "latitude": 46.9911,
        "longitude": 15.4396,
        "airport_name": "Graz Airport",
        "region_name": "Steiermark"
    },
    "INN": {
        "latitude": 47.2602,
        "longitude": 11.344,
        "airport_name": "Innsbruck Airport (Kranebitten Airport)",
        "region_name": "Tirol"
    },
    "HOH": {
        "latitude": 47.385,
        "longitude": 9.7,
        "airport_name": "Hohenems-Dornbirn Airport",
        "region_name": "Vorarlberg"
    },
    "CBR": {
        "latitude": -35.3069,
        "longitude": 149.195,
        "airport_name": "Canberra Airport",
        "region_name": "Australian Capital Territory"
    },
    "ABX": {
        "latitude": -36.0678,
        "longitude": 146.958,
        "airport_name": "Albury Airport",
        "region_name": "New South Wales"
    },
    "ARM": {
        "latitude": -30.5281,
        "longitude": 151.617,
        "airport_name": "Armidale Airport",
        "region_name": "New South Wales"
    },
    "BEO": {
        "latitude": -33.0667,
        "longitude": 151.648,
        "airport_name": "Lake Macquarie Airport (Belmont Airport)",
        "region_name": "New South Wales"
    },
    "BHQ": {
        "latitude": -32.0014,
        "longitude": 141.472,
        "airport_name": "Broken Hill Airport",
        "region_name": "New South Wales"
    },
    "BHS": {
        "latitude": -33.4094,
        "longitude": 149.652,
        "airport_name": "Bathurst Airport",
        "region_name": "New South Wales"
    },
    "BNK": {
        "latitude": -28.8339,
        "longitude": 153.562,
        "airport_name": "Ballina Byron Gateway Airport",
        "region_name": "New South Wales"
    },
    "BRK": {
        "latitude": -30.0392,
        "longitude": 145.952,
        "airport_name": "Bourke Airport",
        "region_name": "New South Wales"
    },
    "BWQ": {
        "latitude": -29.9739,
        "longitude": 146.817,
        "airport_name": "Brewarrina Airport",
        "region_name": "New South Wales"
    },
    "BWU": {
        "latitude": -33.9244,
        "longitude": 150.988,
        "airport_name": "Bankstown Airport",
        "region_name": "New South Wales"
    },
    "BZD": {
        "latitude": -34.6236,
        "longitude": 143.578,
        "airport_name": "Balranald Airport",
        "region_name": "New South Wales"
    },
    "CAZ": {
        "latitude": -31.5383,
        "longitude": 145.794,
        "airport_name": "Cobar Airport",
        "region_name": "New South Wales"
    },
    "CBX": {
        "latitude": -33.0644,
        "longitude": 147.209,
        "airport_name": "Condobolin Airport",
        "region_name": "New South Wales"
    },
    "CDU": {
        "latitude": -34.0403,
        "longitude": 150.687,
        "airport_name": "Camden Airport",
        "region_name": "New South Wales"
    },
    "CES": {
        "latitude": -32.7875,
        "longitude": 151.342,
        "airport_name": "Cessnock Airport",
        "region_name": "New South Wales"
    },
    "CFS": {
        "latitude": -30.3206,
        "longitude": 153.116,
        "airport_name": "Coffs Harbour Airport",
        "region_name": "New South Wales"
    },
    "CLH": {
        "latitude": -31.7733,
        "longitude": 149.61,
        "airport_name": "Coolah Airport",
        "region_name": "New South Wales"
    },
    "CMD": {
        "latitude": -34.6239,
        "longitude": 148.028,
        "airport_name": "Cootamundra Airport",
        "region_name": "New South Wales"
    },
    "CNB": {
        "latitude": -30.9833,
        "longitude": 148.376,
        "airport_name": "Coonamble Airport",
        "region_name": "New South Wales"
    },
    "COJ": {
        "latitude": -31.3325,
        "longitude": 149.267,
        "airport_name": "Coonabarabran Airport",
        "region_name": "New South Wales"
    },
    "CRB": {
        "latitude": -29.5217,
        "longitude": 148.582,
        "airport_name": "Collarenebri Airport",
        "region_name": "New South Wales"
    },
    "CSI": {
        "latitude": -28.8828,
        "longitude": 153.067,
        "airport_name": "Casino Airport",
        "region_name": "New South Wales"
    },
    "CUG": {
        "latitude": -33.2783,
        "longitude": 148.763,
        "airport_name": "Cudal Airport",
        "region_name": "New South Wales"
    },
    "CWT": {
        "latitude": -33.8447,
        "longitude": 148.649,
        "airport_name": "Cowra Airport",
        "region_name": "New South Wales"
    },
    "CWW": {
        "latitude": -35.9947,
        "longitude": 146.357,
        "airport_name": "Corowa Airport",
        "region_name": "New South Wales"
    },
    "DBO": {
        "latitude": -32.2167,
        "longitude": 148.575,
        "airport_name": "Dubbo City Regional Airport",
        "region_name": "New South Wales"
    },
    "DGE": {
        "latitude": -32.5625,
        "longitude": 149.611,
        "airport_name": "Mudgee Airport",
        "region_name": "New South Wales"
    },
    "DNQ": {
        "latitude": -35.5594,
        "longitude": 144.946,
        "airport_name": "Deniliquin Airport",
        "region_name": "New South Wales"
    },
    "EVH": {
        "latitude": -29.0933,
        "longitude": 153.42,
        "airport_name": "Evans Head Memorial Aerodrome",
        "region_name": "New South Wales"
    },
    "FLY": {
        "latitude": -35.6667,
        "longitude": 145.55,
        "airport_name": "Finley Airport",
        "region_name": "New South Wales"
    },
    "FOT": {
        "latitude": -32.2042,
        "longitude": 152.479,
        "airport_name": "Forster (Wallis Island) Airport",
        "region_name": "New South Wales"
    },
    "FRB": {
        "latitude": -33.3636,
        "longitude": 147.935,
        "airport_name": "Forbes Airport",
        "region_name": "New South Wales"
    },
    "GFE": {
        "latitude": -34.0,
        "longitude": 148.133,
        "airport_name": "Grenfell Airport",
        "region_name": "New South Wales"
    },
    "GFF": {
        "latitude": -34.2508,
        "longitude": 146.067,
        "airport_name": "Griffith Airport",
        "region_name": "New South Wales"
    },
    "GFN": {
        "latitude": -29.7594,
        "longitude": 153.03,
        "airport_name": "Clarence Valley Regional Airport",
        "region_name": "New South Wales"
    },
    "GLI": {
        "latitude": -29.675,
        "longitude": 151.689,
        "airport_name": "Glen Innes Airport",
        "region_name": "New South Wales"
    },
    "GOS": {
        "latitude": -33.3678,
        "longitude": 151.3,
        "airport_name": "Somersby Airfield",
        "region_name": "New South Wales"
    },
    "GUH": {
        "latitude": -30.9611,
        "longitude": 150.251,
        "airport_name": "Gunnedah Airport",
        "region_name": "New South Wales"
    },
    "GUL": {
        "latitude": -34.8103,
        "longitude": 149.726,
        "airport_name": "Goulburn Airport",
        "region_name": "New South Wales"
    },
    "HXX": {
        "latitude": -34.5314,
        "longitude": 144.83,
        "airport_name": "Hay Airport",
        "region_name": "New South Wales"
    },
    "IVR": {
        "latitude": -29.8883,
        "longitude": 151.144,
        "airport_name": "Inverell Airport",
        "region_name": "New South Wales"
    },
    "KPS": {
        "latitude": -31.0744,
        "longitude": 152.77,
        "airport_name": "Kempsey Airport",
        "region_name": "New South Wales"
    },
    "LBH": {
        "latitude": -33.5871,
        "longitude": 151.323,
        "airport_name": "Palm Beach Water Airport",
        "region_name": "New South Wales"
    },
    "LDH": {
        "latitude": -31.5383,
        "longitude": 159.077,
        "airport_name": "Lord Howe Island Airport",
        "region_name": "New South Wales"
    },
    "LHG": {
        "latitude": -29.4567,
        "longitude": 147.984,
        "airport_name": "Lightning Ridge Airport",
        "region_name": "New South Wales"
    },
    "LSY": {
        "latitude": -28.8303,
        "longitude": 153.26,
        "airport_name": "Lismore Airport",
        "region_name": "New South Wales"
    },
    "MIM": {
        "latitude": -36.9086,
        "longitude": 149.901,
        "airport_name": "Merimbula Airport",
        "region_name": "New South Wales"
    },
    "MRZ": {
        "latitude": -29.4989,
        "longitude": 149.845,
        "airport_name": "Moree Airport",
        "region_name": "New South Wales"
    },
    "MTL": {
        "latitude": -32.7013,
        "longitude": 151.493,
        "airport_name": "Maitland Airport",
        "region_name": "New South Wales"
    },
    "MVH": {
        "latitude": -30.7,
        "longitude": 152.917,
        "airport_name": "Macksville Airport",
        "region_name": "New South Wales"
    },
    "MYA": {
        "latitude": -35.8978,
        "longitude": 150.144,
        "airport_name": "Moruya Airport",
        "region_name": "New South Wales"
    },
    "NAA": {
        "latitude": -30.3192,
        "longitude": 149.827,
        "airport_name": "Narrabri Airport",
        "region_name": "New South Wales"
    },
    "NBH": {
        "latitude": -30.65,
        "longitude": 153.0,
        "airport_name": "Nambucca Heads Airport",
        "region_name": "New South Wales"
    },
    "NGA": {
        "latitude": -34.2556,
        "longitude": 148.248,
        "airport_name": "Young Airport",
        "region_name": "New South Wales"
    },
    "NOA": {
        "latitude": -34.9489,
        "longitude": 150.537,
        "airport_name": "NAS Nowra",
        "region_name": "New South Wales"
    },
    "NRA": {
        "latitude": -34.7022,
        "longitude": 146.512,
        "airport_name": "Narrandera Airport",
        "region_name": "New South Wales"
    },
    "NSO": {
        "latitude": -32.0372,
        "longitude": 150.832,
        "airport_name": "Scone Airport",
        "region_name": "New South Wales"
    },
    "NTL": {
        "latitude": -32.795,
        "longitude": 151.834,
        "airport_name": "Newcastle Airport / RAAF Base Williamtown",
        "region_name": "New South Wales"
    },
    "NYN": {
        "latitude": -31.5511,
        "longitude": 147.203,
        "airport_name": "Nyngan Airport",
        "region_name": "New South Wales"
    },
    "OAG": {
        "latitude": -33.3817,
        "longitude": 149.133,
        "airport_name": "Orange Airport",
        "region_name": "New South Wales"
    },
    "OOM": {
        "latitude": -36.3006,
        "longitude": 148.974,
        "airport_name": "Cooma-Snowy Mountains Airport",
        "region_name": "New South Wales"
    },
    "PKE": {
        "latitude": -33.1314,
        "longitude": 148.239,
        "airport_name": "Parkes Airport",
        "region_name": "New South Wales"
    },
    "PQQ": {
        "latitude": -31.4358,
        "longitude": 152.863,
        "airport_name": "Port Macquarie Airport",
        "region_name": "New South Wales"
    },
    "RSE": {
        "latitude": -33.869,
        "longitude": 151.262,
        "airport_name": "Rose Bay Water Airport",
        "region_name": "New South Wales"
    },
    "SIX": {
        "latitude": -32.6008,
        "longitude": 151.193,
        "airport_name": "Singleton Airport",
        "region_name": "New South Wales"
    },
    "SYD": {
        "latitude": -33.9461,
        "longitude": 151.177,
        "airport_name": "Sydney Airport (Kingsford Smith Airport)",
        "region_name": "New South Wales"
    },
    "TCW": {
        "latitude": -35.8117,
        "longitude": 145.608,
        "airport_name": "Tocumwal Airport",
        "region_name": "New South Wales"
    },
    "TEM": {
        "latitude": -34.4214,
        "longitude": 147.512,
        "airport_name": "Temora Airport",
        "region_name": "New South Wales"
    },
    "TMW": {
        "latitude": -31.0839,
        "longitude": 150.847,
        "airport_name": "Tamworth Regional Airport",
        "region_name": "New South Wales"
    },
    "TRO": {
        "latitude": -31.8886,
        "longitude": 152.514,
        "airport_name": "Taree Airport",
        "region_name": "New South Wales"
    },
    "TUM": {
        "latitude": -35.2628,
        "longitude": 148.241,
        "airport_name": "Tumut Airport",
        "region_name": "New South Wales"
    },
    "TYB": {
        "latitude": -29.4511,
        "longitude": 142.058,
        "airport_name": "Tibooburra Airport",
        "region_name": "New South Wales"
    },
    "UIR": {
        "latitude": -31.4906,
        "longitude": 150.514,
        "airport_name": "Quirindi Airport",
        "region_name": "New South Wales"
    },
    "WAU": {
        "latitude": -20.6406,
        "longitude": 134.215,
        "airport_name": "Wauchope Airport",
        "region_name": "New South Wales"
    },
    "WEW": {
        "latitude": -30.2583,
        "longitude": 149.408,
        "airport_name": "Wee Waa Airport",
        "region_name": "New South Wales"
    },
    "WGA": {
        "latitude": -35.1653,
        "longitude": 147.466,
        "airport_name": "Wagga Wagga Airport",
        "region_name": "New South Wales"
    },
    "WGE": {
        "latitude": -30.0328,
        "longitude": 148.126,
        "airport_name": "Walgett Airport",
        "region_name": "New South Wales"
    },
    "WIO": {
        "latitude": -31.5264,
        "longitude": 143.375,
        "airport_name": "Wilcannia Airport",
        "region_name": "New South Wales"
    },
    "WLC": {
        "latitude": -31.0,
        "longitude": 151.567,
        "airport_name": "Walcha Airport",
        "region_name": "New South Wales"
    },
    "WOL": {
        "latitude": -34.5611,
        "longitude": 150.789,
        "airport_name": "Illawarra Regional Airport",
        "region_name": "New South Wales"
    },
    "WWY": {
        "latitude": -33.9372,
        "longitude": 147.191,
        "airport_name": "West Wyalong Airport",
        "region_name": "New South Wales"
    },
    "XRH": {
        "latitude": -33.6006,
        "longitude": 150.781,
        "airport_name": "RAAF Base Richmond",
        "region_name": "New South Wales"
    },
    "AMX": {
        "latitude": -21.7383,
        "longitude": 135.242,
        "airport_name": "Ammaroo Airport",
        "region_name": "Northern Territory"
    },
    "ANZ": {
        "latitude": -25.0325,
        "longitude": 132.275,
        "airport_name": "Angus Downs Airport",
        "region_name": "Northern Territory"
    },
    "ASP": {
        "latitude": -23.8067,
        "longitude": 133.902,
        "airport_name": "Alice Springs Airport",
        "region_name": "Northern Territory"
    },
    "AVG": {
        "latitude": -15.7,
        "longitude": 130.0,
        "airport_name": "Auvergne Airport",
        "region_name": "Northern Territory"
    },
    "AWP": {
        "latitude": -20.5,
        "longitude": 137.75,
        "airport_name": "Austral Downs Airport",
        "region_name": "Northern Territory"
    },
    "AXL": {
        "latitude": -19.0602,
        "longitude": 136.71,
        "airport_name": "Alexandria Homestead Airport",
        "region_name": "Northern Territory"
    },
    "AYD": {
        "latitude": -19.2908,
        "longitude": 136.079,
        "airport_name": "Alroy Downs Airport",
        "region_name": "Northern Territory"
    },
    "AYL": {
        "latitude": -18.0181,
        "longitude": 135.535,
        "airport_name": "Anthony Lagoon Airport",
        "region_name": "Northern Territory"
    },
    "AYQ": {
        "latitude": -25.1861,
        "longitude": 130.976,
        "airport_name": "Ayers Rock Airport",
        "region_name": "Northern Territory"
    },
    "BCZ": {
        "latitude": -13.7808,
        "longitude": 136.202,
        "airport_name": "Bickerton Island Airport",
        "region_name": "Northern Territory"
    },
    "BOX": {
        "latitude": -16.0753,
        "longitude": 136.302,
        "airport_name": "Borroloola Airport",
        "region_name": "Northern Territory"
    },
    "BRT": {
        "latitude": -11.7692,
        "longitude": 130.62,
        "airport_name": "Bathurst Island Airport",
        "region_name": "Northern Territory"
    },
    "BTD": {
        "latitude": -18.64,
        "longitude": 135.938,
        "airport_name": "Brunette Downs Airport",
        "region_name": "Northern Territory"
    },
    "BYX": {
        "latitude": -13.1981,
        "longitude": 136.227,
        "airport_name": "Baniyala Airport",
        "region_name": "Northern Territory"
    },
    "CDA": {
        "latitude": -12.9033,
        "longitude": 132.532,
        "airport_name": "Cooinda Airport",
        "region_name": "Northern Territory"
    },
    "CFI": {
        "latitude": -17.0217,
        "longitude": 131.327,
        "airport_name": "Camfield Airport",
        "region_name": "Northern Territory"
    },
    "CKI": {
        "latitude": -11.165,
        "longitude": 132.483,
        "airport_name": "Croker Island Airport",
        "region_name": "Northern Territory"
    },
    "COB": {
        "latitude": -15.5483,
        "longitude": 130.962,
        "airport_name": "Coolibah Airport",
        "region_name": "Northern Territory"
    },
    "CSD": {
        "latitude": -17.948,
        "longitude": 135.916,
        "airport_name": "Cresswell Downs Airport",
        "region_name": "Northern Territory"
    },
    "CTR": {
        "latitude": -17.607,
        "longitude": 131.549,
        "airport_name": "Cattle Creek Airport",
        "region_name": "Northern Territory"
    },
    "DKV": {
        "latitude": -24.86,
        "longitude": 129.07,
        "airport_name": "Docker River Airport",
        "region_name": "Northern Territory"
    },
    "DLV": {
        "latitude": -12.55,
        "longitude": 130.685,
        "airport_name": "Delissaville Airport",
        "region_name": "Northern Territory"
    },
    "DRW": {
        "latitude": -12.4147,
        "longitude": 130.877,
        "airport_name": "Darwin International Airport",
        "region_name": "Northern Territory"
    },
    "DVR": {
        "latitude": -13.7498,
        "longitude": 130.694,
        "airport_name": "Daly River Airport",
        "region_name": "Northern Territory"
    },
    "DYW": {
        "latitude": -16.2647,
        "longitude": 133.383,
        "airport_name": "Daly Waters Airport",
        "region_name": "Northern Territory"
    },
    "EDD": {
        "latitude": -25.2058,
        "longitude": 133.254,
        "airport_name": "Erldunda Airport",
        "region_name": "Northern Territory"
    },
    "EKD": {
        "latitude": -21.1725,
        "longitude": 135.444,
        "airport_name": "Elkedra Airport",
        "region_name": "Northern Territory"
    },
    "ELC": {
        "latitude": -12.0194,
        "longitude": 135.571,
        "airport_name": "Elcho Island Airport",
        "region_name": "Northern Territory"
    },
    "EVD": {
        "latitude": -18.001,
        "longitude": 134.863,
        "airport_name": "Eva Downs Airport",
        "region_name": "Northern Territory"
    },
    "FIK": {
        "latitude": -25.5947,
        "longitude": 134.583,
        "airport_name": "Finke Airport",
        "region_name": "Northern Territory"
    },
    "GBL": {
        "latitude": -11.65,
        "longitude": 133.382,
        "airport_name": "South Goulburn Island Airport",
        "region_name": "Northern Territory"
    },
    "GOV": {
        "latitude": -12.2694,
        "longitude": 136.818,
        "airport_name": "Gove Airport",
        "region_name": "Northern Territory"
    },
    "GPN": {
        "latitude": -11.4025,
        "longitude": 130.422,
        "airport_name": "Garden Point Airport",
        "region_name": "Northern Territory"
    },
    "GTE": {
        "latitude": -13.975,
        "longitude": 136.46,
        "airport_name": "Groote Eylandt Airport",
        "region_name": "Northern Territory"
    },
    "GTS": {
        "latitude": -26.9483,
        "longitude": 133.607,
        "airport_name": "The Granites Airport",
        "region_name": "Northern Territory"
    },
    "HMG": {
        "latitude": -23.93,
        "longitude": 132.805,
        "airport_name": "Hermannsburg Airport",
        "region_name": "Northern Territory"
    },
    "HOK": {
        "latitude": -18.3367,
        "longitude": 130.638,
        "airport_name": "Hooker Creek Airport",
        "region_name": "Northern Territory"
    },
    "HRY": {
        "latitude": -24.584,
        "longitude": 133.236,
        "airport_name": "Henbury Airport",
        "region_name": "Northern Territory"
    },
    "HUB": {
        "latitude": -16.4897,
        "longitude": 130.63,
        "airport_name": "Humbert River Airport",
        "region_name": "Northern Territory"
    },
    "IVW": {
        "latitude": -17.8411,
        "longitude": 129.643,
        "airport_name": "Inverway Airport",
        "region_name": "Northern Territory"
    },
    "JAB": {
        "latitude": -12.6583,
        "longitude": 132.893,
        "airport_name": "Jabiru Airport",
        "region_name": "Northern Territory"
    },
    "KBB": {
        "latitude": -17.7792,
        "longitude": 129.21,
        "airport_name": "Kirkimbie Airport",
        "region_name": "Northern Territory"
    },
    "KBJ": {
        "latitude": -24.26,
        "longitude": 131.49,
        "airport_name": "Kings Canyon Airport",
        "region_name": "Northern Territory"
    },
    "KCS": {
        "latitude": -24.4233,
        "longitude": 131.835,
        "airport_name": "Kings Creek Station Airport",
        "region_name": "Northern Territory"
    },
    "KFG": {
        "latitude": -17.4319,
        "longitude": 130.808,
        "airport_name": "Kalkgurung Airport",
        "region_name": "Northern Territory"
    },
    "KGR": {
        "latitude": -25.8428,
        "longitude": 133.292,
        "airport_name": "Kulgera Airport",
        "region_name": "Northern Territory"
    },
    "KRD": {
        "latitude": -20.51,
        "longitude": 134.671,
        "airport_name": "Kurundi Airport",
        "region_name": "Northern Territory"
    },
    "KTR": {
        "latitude": -14.5211,
        "longitude": 132.378,
        "airport_name": "RAAF Base Tindal",
        "region_name": "Northern Territory"
    },
    "LEL": {
        "latitude": -12.4989,
        "longitude": 135.806,
        "airport_name": "Lake Evella Airport",
        "region_name": "Northern Territory"
    },
    "LIB": {
        "latitude": -17.2356,
        "longitude": 129.882,
        "airport_name": "Limbunya Airport",
        "region_name": "Northern Territory"
    },
    "LNH": {
        "latitude": -20.9807,
        "longitude": 137.918,
        "airport_name": "Lake Nash Airport",
        "region_name": "Northern Territory"
    },
    "MCV": {
        "latitude": -16.4425,
        "longitude": 136.084,
        "airport_name": "McArthur River Mine Airport",
        "region_name": "Northern Territory"
    },
    "MFP": {
        "latitude": -22.1,
        "longitude": 137.983,
        "airport_name": "Manners Creek Airport",
        "region_name": "Northern Territory"
    },
    "MGT": {
        "latitude": -12.0944,
        "longitude": 134.894,
        "airport_name": "Milingimbi Airport",
        "region_name": "Northern Territory"
    },
    "MIY": {
        "latitude": -18.8093,
        "longitude": 137.081,
        "airport_name": "Mittiebah Airport",
        "region_name": "Northern Territory"
    },
    "MIZ": {
        "latitude": -14.0533,
        "longitude": 134.094,
        "airport_name": "Mainoru Airport",
        "region_name": "Northern Territory"
    },
    "MKV": {
        "latitude": -25.9667,
        "longitude": 133.2,
        "airport_name": "Mount Cavenagh Airport",
        "region_name": "Northern Territory"
    },
    "MNG": {
        "latitude": -12.0561,
        "longitude": 134.234,
        "airport_name": "Maningrida Airport",
        "region_name": "Northern Territory"
    },
    "MNV": {
        "latitude": -14.1167,
        "longitude": 133.833,
        "airport_name": "Mount Valley Airport",
        "region_name": "Northern Territory"
    },
    "MNW": {
        "latitude": -22.444,
        "longitude": 135.199,
        "airport_name": "MacDonald Downs Airport",
        "region_name": "Northern Territory"
    },
    "MQE": {
        "latitude": -22.8058,
        "longitude": 137.251,
        "airport_name": "Marqua Airport",
        "region_name": "Northern Territory"
    },
    "MRT": {
        "latitude": -14.8181,
        "longitude": 133.701,
        "airport_name": "Moroak Airport",
        "region_name": "Northern Territory"
    },
    "MSF": {
        "latitude": -22.6247,
        "longitude": 135.035,
        "airport_name": "Mount Swan Airport",
        "region_name": "Northern Territory"
    },
    "MTD": {
        "latitude": -16.9783,
        "longitude": 130.555,
        "airport_name": "Mount Sandford Station Airport",
        "region_name": "Northern Territory"
    },
    "MUP": {
        "latitude": -25.86,
        "longitude": 131.65,
        "airport_name": "Mulga Park Airport",
        "region_name": "Northern Territory"
    },
    "NPP": {
        "latitude": -22.5312,
        "longitude": 133.763,
        "airport_name": "Napperby Airport",
        "region_name": "Northern Territory"
    },
    "NRY": {
        "latitude": -16.0442,
        "longitude": 129.264,
        "airport_name": "Newry Airport",
        "region_name": "Northern Territory"
    },
    "NUB": {
        "latitude": -14.2717,
        "longitude": 135.717,
        "airport_name": "Numbulwar Airport",
        "region_name": "Northern Territory"
    },
    "PEP": {
        "latitude": -14.1442,
        "longitude": 130.091,
        "airport_name": "Peppimenarti Airport",
        "region_name": "Northern Territory"
    },
    "PKT": {
        "latitude": -14.25,
        "longitude": 129.529,
        "airport_name": "Port Keats Airfield",
        "region_name": "Northern Territory"
    },
    "RAM": {
        "latitude": -12.3564,
        "longitude": 134.898,
        "airport_name": "Ramingining Airport",
        "region_name": "Northern Territory"
    },
    "RDA": {
        "latitude": -18.9533,
        "longitude": 135.201,
        "airport_name": "Rockhampton Downs Airport",
        "region_name": "Northern Territory"
    },
    "RPB": {
        "latitude": -14.7348,
        "longitude": 134.525,
        "airport_name": "Roper Bar Airport",
        "region_name": "Northern Territory"
    },
    "RPM": {
        "latitude": -14.7228,
        "longitude": 134.747,
        "airport_name": "Ngukurr Airport",
        "region_name": "Northern Territory"
    },
    "RPV": {
        "latitude": -14.9215,
        "longitude": 134.05,
        "airport_name": "Roper Valley Airport",
        "region_name": "Northern Territory"
    },
    "RRV": {
        "latitude": -16.7183,
        "longitude": 136.945,
        "airport_name": "Robinson River Airport (Northern Territory)",
        "region_name": "Northern Territory"
    },
    "SHU": {
        "latitude": -11.15,
        "longitude": 132.15,
        "airport_name": "Smith Point Airport",
        "region_name": "Northern Territory"
    },
    "SNB": {
        "latitude": -11.4228,
        "longitude": 130.654,
        "airport_name": "Snake Bay Airport",
        "region_name": "Northern Territory"
    },
    "TBK": {
        "latitude": -15.62,
        "longitude": 130.445,
        "airport_name": "Timber Creek Airport",
        "region_name": "Northern Territory"
    },
    "TCA": {
        "latitude": -19.6344,
        "longitude": 134.183,
        "airport_name": "Tennant Creek Airport",
        "region_name": "Northern Territory"
    },
    "TYP": {
        "latitude": -22.2558,
        "longitude": 137.953,
        "airport_name": "Tobermorey Airport",
        "region_name": "Northern Territory"
    },
    "UTD": {
        "latitude": -15.8074,
        "longitude": 134.146,
        "airport_name": "Nutwood Downs Airport",
        "region_name": "Northern Territory"
    },
    "VCD": {
        "latitude": -16.4021,
        "longitude": 131.005,
        "airport_name": "Victoria River Downs Airport",
        "region_name": "Northern Territory"
    },
    "WAV": {
        "latitude": -17.3933,
        "longitude": 131.118,
        "airport_name": "Wave Hill Airport",
        "region_name": "Northern Territory"
    },
    "WLL": {
        "latitude": -17.2199,
        "longitude": 137.935,
        "airport_name": "Wollogorang Airport",
        "region_name": "Northern Territory"
    },
    "WLO": {
        "latitude": -16.63,
        "longitude": 129.32,
        "airport_name": "Waterloo Airport",
        "region_name": "Northern Territory"
    },
    "YUE": {
        "latitude": -22.2542,
        "longitude": 131.782,
        "airport_name": "Yuendumu Airport",
        "region_name": "Northern Territory"
    },
    "AAB": {
        "latitude": -26.693,
        "longitude": 141.048,
        "airport_name": "Arrabury Airport",
        "region_name": "Queensland"
    },
    "ABG": {
        "latitude": -17.6167,
        "longitude": 143.167,
        "airport_name": "Abingdon Airport",
        "region_name": "Queensland"
    },
    "ABH": {
        "latitude": -23.6461,
        "longitude": 146.584,
        "airport_name": "Alpha Airport",
        "region_name": "Queensland"
    },
    "ABM": {
        "latitude": -10.9508,
        "longitude": 142.459,
        "airport_name": "Northern Peninsula Airport",
        "region_name": "Queensland"
    },
    "AGW": {
        "latitude": -12.1456,
        "longitude": 142.149,
        "airport_name": "Agnew Airport",
        "region_name": "Queensland"
    },
    "AUD": {
        "latitude": -18.515,
        "longitude": 139.878,
        "airport_name": "Augustus Downs Airport",
        "region_name": "Queensland"
    },
    "AUU": {
        "latitude": -13.3541,
        "longitude": 141.721,
        "airport_name": "Aurukun Airport",
        "region_name": "Queensland"
    },
    "AXC": {
        "latitude": -22.9667,
        "longitude": 145.242,
        "airport_name": "Aramac Airport",
        "region_name": "Queensland"
    },
    "AYR": {
        "latitude": -19.5844,
        "longitude": 147.329,
        "airport_name": "Ayr Airport",
        "region_name": "Queensland"
    },
    "BBL": {
        "latitude": -27.4056,
        "longitude": 141.809,
        "airport_name": "Ballera Airport",
        "region_name": "Queensland"
    },
    "BCI": {
        "latitude": -23.5653,
        "longitude": 145.307,
        "airport_name": "Barcaldine Airport",
        "region_name": "Queensland"
    },
    "BCK": {
        "latitude": -17.3883,
        "longitude": 144.169,
        "airport_name": "Bolwarra Airport",
        "region_name": "Queensland"
    },
    "BDB": {
        "latitude": -24.9039,
        "longitude": 152.319,
        "airport_name": "Bundaberg Airport",
        "region_name": "Queensland"
    },
    "BDD": {
        "latitude": -10.15,
        "longitude": 142.173,
        "airport_name": "Badu Island Airport",
        "region_name": "Queensland"
    },
    "BEU": {
        "latitude": -24.3461,
        "longitude": 139.46,
        "airport_name": "Bedourie Airport",
        "region_name": "Queensland"
    },
    "BFC": {
        "latitude": -15.8736,
        "longitude": 145.33,
        "airport_name": "Bloomfield Airport",
        "region_name": "Queensland"
    },
    "BHT": {
        "latitude": -23.3639,
        "longitude": 141.563,
        "airport_name": "Brighton Downs Airport",
        "region_name": "Queensland"
    },
    "BIP": {
        "latitude": -16.8808,
        "longitude": 143.479,
        "airport_name": "Bulimba Airport",
        "region_name": "Queensland"
    },
    "BKP": {
        "latitude": -20.4958,
        "longitude": 138.475,
        "airport_name": "Barkly Downs Airport",
        "region_name": "Queensland"
    },
    "BKQ": {
        "latitude": -24.4278,
        "longitude": 145.429,
        "airport_name": "Blackall Airport",
        "region_name": "Queensland"
    },
    "BLS": {
        "latitude": -28.0583,
        "longitude": 147.483,
        "airport_name": "Bollon Airport",
        "region_name": "Queensland"
    },
    "BLT": {
        "latitude": -23.6031,
        "longitude": 148.807,
        "airport_name": "Blackwater Airport",
        "region_name": "Queensland"
    },
    "BMP": {
        "latitude": -20.8033,
        "longitude": 149.27,
        "airport_name": "Brampton Island Airport",
        "region_name": "Queensland"
    },
    "BNE": {
        "latitude": -27.3842,
        "longitude": 153.117,
        "airport_name": "Brisbane Airport",
        "region_name": "Queensland"
    },
    "BQL": {
        "latitude": -22.9133,
        "longitude": 139.9,
        "airport_name": "Boulia Airport",
        "region_name": "Queensland"
    },
    "BTX": {
        "latitude": -25.6417,
        "longitude": 140.783,
        "airport_name": "Betoota Airport",
        "region_name": "Queensland"
    },
    "BUC": {
        "latitude": -17.7486,
        "longitude": 139.534,
        "airport_name": "Burketown Airport",
        "region_name": "Queensland"
    },
    "BVI": {
        "latitude": -25.8975,
        "longitude": 139.348,
        "airport_name": "Birdsville Airport",
        "region_name": "Queensland"
    },
    "BVW": {
        "latitude": -12.6592,
        "longitude": 142.675,
        "airport_name": "Batavia Downs Airport",
        "region_name": "Queensland"
    },
    "BZP": {
        "latitude": -14.7403,
        "longitude": 144.119,
        "airport_name": "Bizant Airport",
        "region_name": "Queensland"
    },
    "CBY": {
        "latitude": -19.4794,
        "longitude": 140.927,
        "airport_name": "Canobie Airport",
        "region_name": "Queensland"
    },
    "CCL": {
        "latitude": -26.775,
        "longitude": 150.617,
        "airport_name": "Chinchilla Airport",
        "region_name": "Queensland"
    },
    "CDQ": {
        "latitude": -18.225,
        "longitude": 142.258,
        "airport_name": "Croydon Airport",
        "region_name": "Queensland"
    },
    "CFP": {
        "latitude": -18.7167,
        "longitude": 144.317,
        "airport_name": "Carpentaria Downs Airport",
        "region_name": "Queensland"
    },
    "CMA": {
        "latitude": -28.03,
        "longitude": 145.622,
        "airport_name": "Cunnamulla Airport",
        "region_name": "Queensland"
    },
    "CML": {
        "latitude": -19.9117,
        "longitude": 138.125,
        "airport_name": "Camooweal Airport",
        "region_name": "Queensland"
    },
    "CMQ": {
        "latitude": -22.7731,
        "longitude": 147.621,
        "airport_name": "Clermont Airport",
        "region_name": "Queensland"
    },
    "CNC": {
        "latitude": -10.05,
        "longitude": 143.07,
        "airport_name": "Coconut Island Airport",
        "region_name": "Queensland"
    },
    "CNJ": {
        "latitude": -20.6686,
        "longitude": 140.504,
        "airport_name": "Cloncurry Airport",
        "region_name": "Queensland"
    },
    "CNS": {
        "latitude": -16.8858,
        "longitude": 145.755,
        "airport_name": "Cairns Airport",
        "region_name": "Queensland"
    },
    "CQP": {
        "latitude": -14.9708,
        "longitude": 145.312,
        "airport_name": "Cape Flattery Airport",
        "region_name": "Queensland"
    },
    "CRH": {
        "latitude": -28.4301,
        "longitude": 152.089,
        "airport_name": "Cherrabah Airport",
        "region_name": "Queensland"
    },
    "CTL": {
        "latitude": -26.4133,
        "longitude": 146.262,
        "airport_name": "Charleville Airport",
        "region_name": "Queensland"
    },
    "CTN": {
        "latitude": -15.4447,
        "longitude": 145.184,
        "airport_name": "Cooktown Airport",
        "region_name": "Queensland"
    },
    "CUD": {
        "latitude": -26.8,
        "longitude": 153.1,
        "airport_name": "Caloundra Airport",
        "region_name": "Queensland"
    },
    "CUQ": {
        "latitude": -13.7611,
        "longitude": 143.113,
        "airport_name": "Coen Airport",
        "region_name": "Queensland"
    },
    "CXT": {
        "latitude": -20.0431,
        "longitude": 146.273,
        "airport_name": "Charters Towers Airport",
        "region_name": "Queensland"
    },
    "CZY": {
        "latitude": -24.5167,
        "longitude": 139.617,
        "airport_name": "Cluny Airport",
        "region_name": "Queensland"
    },
    "DBY": {
        "latitude": -27.1553,
        "longitude": 151.267,
        "airport_name": "Dalby Airport",
        "region_name": "Queensland"
    },
    "DDN": {
        "latitude": -16.9917,
        "longitude": 141.317,
        "airport_name": "Delta Downs Airport",
        "region_name": "Queensland"
    },
    "DFP": {
        "latitude": -16.053,
        "longitude": 143.012,
        "airport_name": "Drumduff Airport",
        "region_name": "Queensland"
    },
    "DHD": {
        "latitude": -27.075,
        "longitude": 141.9,
        "airport_name": "Durham Downs Airport",
        "region_name": "Queensland"
    },
    "DKI": {
        "latitude": -17.9417,
        "longitude": 146.14,
        "airport_name": "Dunk Island Airport",
        "region_name": "Queensland"
    },
    "DMD": {
        "latitude": -17.9403,
        "longitude": 138.822,
        "airport_name": "Doomadgee Airport",
        "region_name": "Queensland"
    },
    "DNB": {
        "latitude": -16.05,
        "longitude": 142.4,
        "airport_name": "Dunbar Airport",
        "region_name": "Queensland"
    },
    "DRD": {
        "latitude": -16.5537,
        "longitude": 141.824,
        "airport_name": "Dorunda Airport",
        "region_name": "Queensland"
    },
    "DRN": {
        "latitude": -28.5917,
        "longitude": 148.217,
        "airport_name": "Dirranbandi Airport",
        "region_name": "Queensland"
    },
    "DRR": {
        "latitude": -25.685,
        "longitude": 140.228,
        "airport_name": "Durrie Airport",
        "region_name": "Queensland"
    },
    "DVP": {
        "latitude": -24.15,
        "longitude": 141.108,
        "airport_name": "Davenport Downs Airport",
        "region_name": "Queensland"
    },
    "DXD": {
        "latitude": -15.1175,
        "longitude": 143.316,
        "airport_name": "Dixie Airport",
        "region_name": "Queensland"
    },
    "DYA": {
        "latitude": -22.6222,
        "longitude": 148.364,
        "airport_name": "Dysart Airport",
        "region_name": "Queensland"
    },
    "DYM": {
        "latitude": -23.7617,
        "longitude": 141.145,
        "airport_name": "Diamantina Lakes Airport",
        "region_name": "Queensland"
    },
    "EDR": {
        "latitude": -14.8965,
        "longitude": 141.609,
        "airport_name": "Edward River Airport",
        "region_name": "Queensland"
    },
    "EIH": {
        "latitude": -18.5033,
        "longitude": 144.094,
        "airport_name": "Einasleigh Airport",
        "region_name": "Queensland"
    },
    "EMD": {
        "latitude": -23.5675,
        "longitude": 148.179,
        "airport_name": "Emerald Airport",
        "region_name": "Queensland"
    },
    "ERQ": {
        "latitude": -20.9764,
        "longitude": 141.007,
        "airport_name": "Elrose Airport",
        "region_name": "Queensland"
    },
    "GAH": {
        "latitude": -25.6144,
        "longitude": 151.619,
        "airport_name": "Gayndah Airport",
        "region_name": "Queensland"
    },
    "GBP": {
        "latitude": -16.55,
        "longitude": 143.667,
        "airport_name": "Gamboola Airport",
        "region_name": "Queensland"
    },
    "GGD": {
        "latitude": -18.625,
        "longitude": 139.233,
        "airport_name": "Gregory Downs Airport",
        "region_name": "Queensland"
    },
    "GIC": {
        "latitude": -9.23278,
        "longitude": 142.218,
        "airport_name": "Boigu Island Airport",
        "region_name": "Queensland"
    },
    "GKL": {
        "latitude": -23.1833,
        "longitude": 150.942,
        "airport_name": "Great Keppel Island Airport",
        "region_name": "Queensland"
    },
    "GLG": {
        "latitude": -24.8083,
        "longitude": 139.6,
        "airport_name": "Glengyle Airport",
        "region_name": "Queensland"
    },
    "GLM": {
        "latitude": -22.8883,
        "longitude": 138.825,
        "airport_name": "Glenormiston Airport",
        "region_name": "Queensland"
    },
    "GLT": {
        "latitude": -23.8697,
        "longitude": 151.223,
        "airport_name": "Gladstone Airport",
        "region_name": "Queensland"
    },
    "GOO": {
        "latitude": -28.5214,
        "longitude": 150.32,
        "airport_name": "Goondiwindi Airport",
        "region_name": "Queensland"
    },
    "GPD": {
        "latitude": -19.7726,
        "longitude": 139.404,
        "airport_name": "Mount Gordon Airport",
        "region_name": "Queensland"
    },
    "GTT": {
        "latitude": -18.305,
        "longitude": 143.53,
        "airport_name": "Georgetown Airport",
        "region_name": "Queensland"
    },
    "GVP": {
        "latitude": -18.9966,
        "longitude": 145.014,
        "airport_name": "Greenvale Airport",
        "region_name": "Queensland"
    },
    "GYP": {
        "latitude": -26.2828,
        "longitude": 152.702,
        "airport_name": "Gympie Airport",
        "region_name": "Queensland"
    },
    "HAT": {
        "latitude": -11.7369,
        "longitude": 142.577,
        "airport_name": "Heathlands Airport",
        "region_name": "Queensland"
    },
    "HGD": {
        "latitude": -20.815,
        "longitude": 144.225,
        "airport_name": "Hughenden Airport",
        "region_name": "Queensland"
    },
    "HID": {
        "latitude": -10.5864,
        "longitude": 142.29,
        "airport_name": "Horn Island Airport",
        "region_name": "Queensland"
    },
    "HIG": {
        "latitude": -16.4244,
        "longitude": 143.146,
        "airport_name": "Highbury Airport",
        "region_name": "Queensland"
    },
    "HIP": {
        "latitude": -21.3333,
        "longitude": 138.283,
        "airport_name": "Headingly Airport",
        "region_name": "Queensland"
    },
    "HLV": {
        "latitude": -15.6858,
        "longitude": 145.215,
        "airport_name": "Helenvale Airport",
        "region_name": "Queensland"
    },
    "HPE": {
        "latitude": -15.2923,
        "longitude": 145.104,
        "airport_name": "Hopevale Airport",
        "region_name": "Queensland"
    },
    "HTI": {
        "latitude": -20.3581,
        "longitude": 148.952,
        "airport_name": "Great Barrier Reef Airport",
        "region_name": "Queensland"
    },
    "HVB": {
        "latitude": -25.3189,
        "longitude": 152.88,
        "airport_name": "Hervey Bay Airport",
        "region_name": "Queensland"
    },
    "IFF": {
        "latitude": -18.9,
        "longitude": 141.217,
        "airport_name": "Iffley Airport",
        "region_name": "Queensland"
    },
    "IFL": {
        "latitude": -17.5594,
        "longitude": 146.012,
        "airport_name": "Innisfail Airport",
        "region_name": "Queensland"
    },
    "IGH": {
        "latitude": -18.6606,
        "longitude": 146.152,
        "airport_name": "Ingham Airport",
        "region_name": "Queensland"
    },
    "IKP": {
        "latitude": -16.275,
        "longitude": 141.442,
        "airport_name": "Inkerman Airport",
        "region_name": "Queensland"
    },
    "INJ": {
        "latitude": -25.851,
        "longitude": 148.55,
        "airport_name": "Injune Airport",
        "region_name": "Queensland"
    },
    "IRG": {
        "latitude": -12.7869,
        "longitude": 143.305,
        "airport_name": "Lockhart River Airport",
        "region_name": "Queensland"
    },
    "ISA": {
        "latitude": -20.6639,
        "longitude": 139.489,
        "airport_name": "Mount Isa Airport",
        "region_name": "Queensland"
    },
    "ISI": {
        "latitude": -24.2583,
        "longitude": 144.425,
        "airport_name": "Isisford Airport",
        "region_name": "Queensland"
    },
    "JCK": {
        "latitude": -20.6683,
        "longitude": 141.723,
        "airport_name": "Julia Creek Airport",
        "region_name": "Queensland"
    },
    "JUN": {
        "latitude": -24.8417,
        "longitude": 143.058,
        "airport_name": "Jundah Airport",
        "region_name": "Queensland"
    },
    "KCE": {
        "latitude": -20.5967,
        "longitude": 147.86,
        "airport_name": "Collinsville Airport",
        "region_name": "Queensland"
    },
    "KDS": {
        "latitude": -24.3388,
        "longitude": 139.279,
        "airport_name": "Kamaran Downs Airport",
        "region_name": "Queensland"
    },
    "KGY": {
        "latitude": -26.5808,
        "longitude": 151.841,
        "airport_name": "Kingaroy Airport",
        "region_name": "Queensland"
    },
    "KKP": {
        "latitude": -15.3189,
        "longitude": 143.955,
        "airport_name": "Koolburra Airport",
        "region_name": "Queensland"
    },
    "KML": {
        "latitude": -19.375,
        "longitude": 140.057,
        "airport_name": "Kamileroi Airport",
        "region_name": "Queensland"
    },
    "KOH": {
        "latitude": -15.8886,
        "longitude": 142.439,
        "airport_name": "Koolatah Airport",
        "region_name": "Queensland"
    },
    "KPP": {
        "latitude": -14.89,
        "longitude": 144.22,
        "airport_name": "Kalpowar Airport",
        "region_name": "Queensland"
    },
    "KRB": {
        "latitude": -17.4567,
        "longitude": 140.83,
        "airport_name": "Karumba Airport",
        "region_name": "Queensland"
    },
    "KSV": {
        "latitude": -23.55,
        "longitude": 140.7,
        "airport_name": "Springvale Airport",
        "region_name": "Queensland"
    },
    "KUG": {
        "latitude": -10.225,
        "longitude": 142.218,
        "airport_name": "Kubin Airport",
        "region_name": "Queensland"
    },
    "KWM": {
        "latitude": -15.4856,
        "longitude": 141.751,
        "airport_name": "Kowanyama Airport",
        "region_name": "Queensland"
    },
    "LDC": {
        "latitude": -20.4536,
        "longitude": 149.04,
        "airport_name": "Lindeman Island Airport",
        "region_name": "Queensland"
    },
    "LFP": {
        "latitude": -14.9207,
        "longitude": 144.203,
        "airport_name": "Lakefield Airport",
        "region_name": "Queensland"
    },
    "LKD": {
        "latitude": -15.8333,
        "longitude": 144.85,
        "airport_name": "Lakeland Downs Airport",
        "region_name": "Queensland"
    },
    "LLG": {
        "latitude": -17.1428,
        "longitude": 144.529,
        "airport_name": "Chillagoe Airport",
        "region_name": "Queensland"
    },
    "LLP": {
        "latitude": -23.0167,
        "longitude": 138.7,
        "airport_name": "Linda Downs Airport",
        "region_name": "Queensland"
    },
    "LOA": {
        "latitude": -18.9933,
        "longitude": 139.907,
        "airport_name": "Lorraine Airport",
        "region_name": "Queensland"
    },
    "LRE": {
        "latitude": -23.4342,
        "longitude": 144.28,
        "airport_name": "Longreach Airport",
        "region_name": "Queensland"
    },
    "LTP": {
        "latitude": -19.1958,
        "longitude": 144.371,
        "airport_name": "Lyndhurst Airport",
        "region_name": "Queensland"
    },
    "LTV": {
        "latitude": -17.0483,
        "longitude": 141.376,
        "airport_name": "Lotus Vale Station Airport",
        "region_name": "Queensland"
    },
    "LUT": {
        "latitude": -15.1833,
        "longitude": 144.367,
        "airport_name": "New Laura Airport",
        "region_name": "Queensland"
    },
    "LUU": {
        "latitude": -15.55,
        "longitude": 144.45,
        "airport_name": "Laura Airport",
        "region_name": "Queensland"
    },
    "LWH": {
        "latitude": -18.5683,
        "longitude": 138.635,
        "airport_name": "Lawn Hill Airport",
        "region_name": "Queensland"
    },
    "LYT": {
        "latitude": -24.1129,
        "longitude": 152.716,
        "airport_name": "Lady Elliot Island Airport",
        "region_name": "Queensland"
    },
    "LZR": {
        "latitude": -14.6733,
        "longitude": 145.455,
        "airport_name": "Lizard Island Airport",
        "region_name": "Queensland"
    },
    "MBH": {
        "latitude": -25.5133,
        "longitude": 152.715,
        "airport_name": "Maryborough Airport",
        "region_name": "Queensland"
    },
    "MCY": {
        "latitude": -26.6033,
        "longitude": 153.091,
        "airport_name": "Sunshine Coast Airport",
        "region_name": "Queensland"
    },
    "MET": {
        "latitude": -12.4442,
        "longitude": 142.638,
        "airport_name": "Moreton Airport",
        "region_name": "Queensland"
    },
    "MFL": {
        "latitude": -19.67,
        "longitude": 144.885,
        "airport_name": "Mount Full Stop Airport",
        "region_name": "Queensland"
    },
    "MKY": {
        "latitude": -21.1717,
        "longitude": 149.18,
        "airport_name": "Mackay Airport",
        "region_name": "Queensland"
    },
    "MLV": {
        "latitude": -13.0649,
        "longitude": 142.454,
        "airport_name": "Merluna Airport",
        "region_name": "Queensland"
    },
    "MMM": {
        "latitude": -22.8025,
        "longitude": 148.705,
        "airport_name": "Middlemount Airport",
        "region_name": "Queensland"
    },
    "MNQ": {
        "latitude": -24.8858,
        "longitude": 151.1,
        "airport_name": "Monto Airport",
        "region_name": "Queensland"
    },
    "MOV": {
        "latitude": -22.0578,
        "longitude": 148.077,
        "airport_name": "Moranbah Airport",
        "region_name": "Queensland"
    },
    "MRG": {
        "latitude": -17.0692,
        "longitude": 145.419,
        "airport_name": "Mareeba Airfield",
        "region_name": "Queensland"
    },
    "MRL": {
        "latitude": 46.3834,
        "longitude": -82.6331,
        "airport_name": "Miners Lake Airport",
        "region_name": "Queensland"
    },
    "MTQ": {
        "latitude": -26.4833,
        "longitude": 147.937,
        "airport_name": "Mitchell Airport",
        "region_name": "Queensland"
    },
    "MVU": {
        "latitude": -14.7757,
        "longitude": 143.505,
        "airport_name": "Musgrave Airport",
        "region_name": "Queensland"
    },
    "MWY": {
        "latitude": -17.3289,
        "longitude": 141.886,
        "airport_name": "Miranda Downs Airport",
        "region_name": "Queensland"
    },
    "MXD": {
        "latitude": -23.3637,
        "longitude": 139.65,
        "airport_name": "Marion Downs Airport",
        "region_name": "Queensland"
    },
    "MYI": {
        "latitude": -9.91667,
        "longitude": 144.055,
        "airport_name": "Murray Island Airport",
        "region_name": "Queensland"
    },
    "NLF": {
        "latitude": -9.58333,
        "longitude": 143.767,
        "airport_name": "Darnley Island Airport",
        "region_name": "Queensland"
    },
    "NMP": {
        "latitude": -19.2,
        "longitude": 145.773,
        "airport_name": "New Moon Airport",
        "region_name": "Queensland"
    },
    "NMR": {
        "latitude": -27.5583,
        "longitude": 141.133,
        "airport_name": "Nappa Merrie Airport",
        "region_name": "Queensland"
    },
    "NSV": {
        "latitude": -26.4233,
        "longitude": 153.063,
        "airport_name": "Noosa Airport",
        "region_name": "Queensland"
    },
    "NTN": {
        "latitude": -17.6841,
        "longitude": 141.07,
        "airport_name": "Normanton Airport",
        "region_name": "Queensland"
    },
    "OBA": {
        "latitude": 56.4657,
        "longitude": -5.3977,
        "airport_name": "Oban Airport",
        "region_name": "Queensland"
    },
    "OKB": {
        "latitude": -24.9594,
        "longitude": 153.315,
        "airport_name": "Orchid Beach Airport",
        "region_name": "Queensland"
    },
    "OKR": {
        "latitude": -9.7528,
        "longitude": 143.406,
        "airport_name": "Yorke Island Airport",
        "region_name": "Queensland"
    },
    "OKY": {
        "latitude": -27.4114,
        "longitude": 151.735,
        "airport_name": "Oakey Army Aviation Centre",
        "region_name": "Queensland"
    },
    "ONG": {
        "latitude": -16.6625,
        "longitude": 139.178,
        "airport_name": "Mornington Island Airport",
        "region_name": "Queensland"
    },
    "ONR": {
        "latitude": -24.8167,
        "longitude": 140.533,
        "airport_name": "Monkira Airport",
        "region_name": "Queensland"
    },
    "OOL": {
        "latitude": -28.1644,
        "longitude": 153.505,
        "airport_name": "Gold Coast Airport (Coolangatta Airport)",
        "region_name": "Queensland"
    },
    "OOR": {
        "latitude": -25.25,
        "longitude": 140.983,
        "airport_name": "Mooraberree Airport",
        "region_name": "Queensland"
    },
    "OPI": {
        "latitude": -12.325,
        "longitude": 133.006,
        "airport_name": "Oenpelli Airport",
        "region_name": "Queensland"
    },
    "ORS": {
        "latitude": -18.634,
        "longitude": 146.5,
        "airport_name": "Orpheus Island Resort Waterport",
        "region_name": "Queensland"
    },
    "OSO": {
        "latitude": -22.0817,
        "longitude": 140.555,
        "airport_name": "Osborne Mine Airport",
        "region_name": "Queensland"
    },
    "OXO": {
        "latitude": -28.0598,
        "longitude": 141.536,
        "airport_name": "Orientos Airport",
        "region_name": "Queensland"
    },
    "OXY": {
        "latitude": -25.3583,
        "longitude": 141.433,
        "airport_name": "Morney Airport",
        "region_name": "Queensland"
    },
    "PHQ": {
        "latitude": -21.8111,
        "longitude": 139.924,
        "airport_name": "The Monument Airport",
        "region_name": "Queensland"
    },
    "PMK": {
        "latitude": -18.7553,
        "longitude": 146.581,
        "airport_name": "Palm Island Airport",
        "region_name": "Queensland"
    },
    "PPP": {
        "latitude": -20.495,
        "longitude": 148.552,
        "airport_name": "Whitsunday Coast Airport",
        "region_name": "Queensland"
    },
    "RCM": {
        "latitude": -20.7019,
        "longitude": 143.115,
        "airport_name": "Richmond Airport",
        "region_name": "Queensland"
    },
    "RKY": {
        "latitude": -13.6434,
        "longitude": 142.641,
        "airport_name": "Rokeby Airport",
        "region_name": "Queensland"
    },
    "RLP": {
        "latitude": -18.4253,
        "longitude": 144.459,
        "airport_name": "Rosella Plains Airport",
        "region_name": "Queensland"
    },
    "RMA": {
        "latitude": -26.545,
        "longitude": 148.775,
        "airport_name": "Roma Airport",
        "region_name": "Queensland"
    },
    "ROH": {
        "latitude": -18.845,
        "longitude": 143.71,
        "airport_name": "Robinhood Airport",
        "region_name": "Queensland"
    },
    "ROK": {
        "latitude": -23.3819,
        "longitude": 150.475,
        "airport_name": "Rockhampton Airport",
        "region_name": "Queensland"
    },
    "RSB": {
        "latitude": -25.8333,
        "longitude": 139.65,
        "airport_name": "Roseberth Airport",
        "region_name": "Queensland"
    },
    "RTP": {
        "latitude": -15.6433,
        "longitude": 141.843,
        "airport_name": "Rutland Plains Airport",
        "region_name": "Queensland"
    },
    "SBR": {
        "latitude": -9.37833,
        "longitude": 142.625,
        "airport_name": "Saibai Island Airport",
        "region_name": "Queensland"
    },
    "SCG": {
        "latitude": -18.6333,
        "longitude": 144.567,
        "airport_name": "Spring Creek Airport",
        "region_name": "Queensland"
    },
    "SGO": {
        "latitude": -28.0497,
        "longitude": 148.595,
        "airport_name": "St George Airport",
        "region_name": "Queensland"
    },
    "SHQ": {
        "latitude": -27.9221,
        "longitude": 153.372,
        "airport_name": "Southport Airport",
        "region_name": "Queensland"
    },
    "SNH": {
        "latitude": -28.6203,
        "longitude": 151.991,
        "airport_name": "Stanthorpe Airport",
        "region_name": "Queensland"
    },
    "SRM": {
        "latitude": -24.0568,
        "longitude": 139.082,
        "airport_name": "Sandringham Station Airport",
        "region_name": "Queensland"
    },
    "SRR": {
        "latitude": -27.5167,
        "longitude": 153.428,
        "airport_name": "Dunwich Airport",
        "region_name": "Queensland"
    },
    "SSP": {
        "latitude": -13.9754,
        "longitude": 143.554,
        "airport_name": "Silver Plains Airport",
        "region_name": "Queensland"
    },
    "STF": {
        "latitude": -9.51,
        "longitude": 143.55,
        "airport_name": "Stephens Island Airport",
        "region_name": "Queensland"
    },
    "STH": {
        "latitude": -17.85,
        "longitude": 142.567,
        "airport_name": "Strathmore Airport",
        "region_name": "Queensland"
    },
    "SVM": {
        "latitude": -10.3667,
        "longitude": 142.117,
        "airport_name": "St Pauls Mission Airport",
        "region_name": "Queensland"
    },
    "SYU": {
        "latitude": -10.2083,
        "longitude": 142.825,
        "airport_name": "Warraber Island Airport",
        "region_name": "Queensland"
    },
    "TAN": {
        "latitude": -27.13,
        "longitude": 153.363,
        "airport_name": "Tangalooma Airport",
        "region_name": "Queensland"
    },
    "TDR": {
        "latitude": -24.9933,
        "longitude": 150.093,
        "airport_name": "Theodore Airport",
        "region_name": "Queensland"
    },
    "THG": {
        "latitude": -24.4939,
        "longitude": 150.576,
        "airport_name": "Thangool Airport",
        "region_name": "Queensland"
    },
    "TQP": {
        "latitude": -21.835,
        "longitude": 140.888,
        "airport_name": "Trepell Airport",
        "region_name": "Queensland"
    },
    "TSV": {
        "latitude": -19.2525,
        "longitude": 146.765,
        "airport_name": "Townsville Airport",
        "region_name": "Queensland"
    },
    "TWB": {
        "latitude": -27.5428,
        "longitude": 151.916,
        "airport_name": "Toowoomba City Aerodrome",
        "region_name": "Queensland"
    },
    "TWN": {
        "latitude": -26.388,
        "longitude": 153.028,
        "airport_name": "Tewantin Airport",
        "region_name": "Queensland"
    },
    "TWP": {
        "latitude": -17.3633,
        "longitude": 143.75,
        "airport_name": "Torwood Airport",
        "region_name": "Queensland"
    },
    "TXR": {
        "latitude": -25.8478,
        "longitude": 141.928,
        "airport_name": "Tanbar Airport",
        "region_name": "Queensland"
    },
    "TYG": {
        "latitude": -26.0833,
        "longitude": 143.467,
        "airport_name": "Thylungra Airport",
        "region_name": "Queensland"
    },
    "UBB": {
        "latitude": -9.95,
        "longitude": 142.183,
        "airport_name": "Mabuiag Island Airport",
        "region_name": "Queensland"
    },
    "UDA": {
        "latitude": -18.2,
        "longitude": 144.6,
        "airport_name": "Undara Airport",
        "region_name": "Queensland"
    },
    "ULP": {
        "latitude": -26.6122,
        "longitude": 144.253,
        "airport_name": "Quilpie Airport",
        "region_name": "Queensland"
    },
    "UTB": {
        "latitude": -22.5833,
        "longitude": 144.533,
        "airport_name": "Muttaburra Airport",
        "region_name": "Queensland"
    },
    "VNR": {
        "latitude": -16.9633,
        "longitude": 141.95,
        "airport_name": "Vanrook Airport",
        "region_name": "Queensland"
    },
    "WAN": {
        "latitude": -25.3563,
        "longitude": 141.925,
        "airport_name": "Waverney Airport",
        "region_name": "Queensland"
    },
    "WAZ": {
        "latitude": -28.1494,
        "longitude": 151.943,
        "airport_name": "Warwick Airport",
        "region_name": "Queensland"
    },
    "WDI": {
        "latitude": -26.2833,
        "longitude": 151.858,
        "airport_name": "Wondai Airport",
        "region_name": "Queensland"
    },
    "WEI": {
        "latitude": -12.6786,
        "longitude": 141.925,
        "airport_name": "Weipa Airport",
        "region_name": "Queensland"
    },
    "WIN": {
        "latitude": -22.3636,
        "longitude": 143.086,
        "airport_name": "Winton Airport",
        "region_name": "Queensland"
    },
    "WLE": {
        "latitude": -26.8083,
        "longitude": 150.175,
        "airport_name": "Miles Airport",
        "region_name": "Queensland"
    },
    "WNR": {
        "latitude": -25.4131,
        "longitude": 142.667,
        "airport_name": "Windorah Airport",
        "region_name": "Queensland"
    },
    "WON": {
        "latitude": -18.575,
        "longitude": 140.892,
        "airport_name": "Wondoola Airport",
        "region_name": "Queensland"
    },
    "WPK": {
        "latitude": -16.6583,
        "longitude": 144.002,
        "airport_name": "Wrotham Park Airport",
        "region_name": "Queensland"
    },
    "WSY": {
        "latitude": -20.2761,
        "longitude": 148.755,
        "airport_name": "Whitsunday Airport",
        "region_name": "Queensland"
    },
    "WTB": {
        "latitude": -27.5583,
        "longitude": 151.793,
        "airport_name": "Toowoomba Wellcamp Airport",
        "region_name": "Queensland"
    },
    "XMY": {
        "latitude": -9.90111,
        "longitude": 142.776,
        "airport_name": "Yam Island Airport",
        "region_name": "Queensland"
    },
    "XTG": {
        "latitude": -27.9864,
        "longitude": 143.811,
        "airport_name": "Thargomindah Airport",
        "region_name": "Queensland"
    },
    "XTO": {
        "latitude": -25.8017,
        "longitude": 149.9,
        "airport_name": "Taroom Airport",
        "region_name": "Queensland"
    },
    "XTR": {
        "latitude": -27.1567,
        "longitude": 150.477,
        "airport_name": "Tara Airport",
        "region_name": "Queensland"
    },
    "ZBL": {
        "latitude": -24.4,
        "longitude": 150.51,
        "airport_name": "Biloela Airport",
        "region_name": "Queensland"
    },
    "ZBO": {
        "latitude": -20.0183,
        "longitude": 148.215,
        "airport_name": "Bowen Airport",
        "region_name": "Queensland"
    },
    "ZGL": {
        "latitude": -25.6833,
        "longitude": 142.108,
        "airport_name": "South Galway Airport",
        "region_name": "Queensland"
    },
    "ADL": {
        "latitude": -34.945,
        "longitude": 138.531,
        "airport_name": "Adelaide Airport",
        "region_name": "South Australia"
    },
    "ADO": {
        "latitude": -30.4383,
        "longitude": 137.137,
        "airport_name": "Andamooka Airport",
        "region_name": "South Australia"
    },
    "AMT": {
        "latitude": -26.1083,
        "longitude": 131.207,
        "airport_name": "Amata Airport",
        "region_name": "South Australia"
    },
    "AWN": {
        "latitude": -26.5333,
        "longitude": 139.267,
        "airport_name": "Alton Downs Airport",
        "region_name": "South Australia"
    },
    "CCW": {
        "latitude": -33.6667,
        "longitude": 136.892,
        "airport_name": "Cowell Airport",
        "region_name": "South Australia"
    },
    "CED": {
        "latitude": -32.1306,
        "longitude": 133.71,
        "airport_name": "Ceduna Airport",
        "region_name": "South Australia"
    },
    "CFH": {
        "latitude": -27.0183,
        "longitude": 138.892,
        "airport_name": "Clifton Hills Airport",
        "region_name": "South Australia"
    },
    "CPD": {
        "latitude": -29.04,
        "longitude": 134.721,
        "airport_name": "Coober Pedy Airport",
        "region_name": "South Australia"
    },
    "CRJ": {
        "latitude": -31.8944,
        "longitude": 132.296,
        "airport_name": "Coorabie Airport",
        "region_name": "South Australia"
    },
    "CVC": {
        "latitude": -33.7097,
        "longitude": 136.505,
        "airport_name": "Cleve Airport",
        "region_name": "South Australia"
    },
    "CWR": {
        "latitude": -27.7117,
        "longitude": 138.328,
        "airport_name": "Cowarie Airport",
        "region_name": "South Australia"
    },
    "DLK": {
        "latitude": -29.0133,
        "longitude": 138.481,
        "airport_name": "Dulkaninna Airport",
        "region_name": "South Australia"
    },
    "ERB": {
        "latitude": -26.2633,
        "longitude": 132.182,
        "airport_name": "Pukatja Airport (Ernabella Airport)",
        "region_name": "South Australia"
    },